{"meals": [{"name": "Tortilla Soup", "region": "MEXICAN", "season": "FALL", "location": "N/A", "time": "MODERATE", "main_ingredient": "CHICKEN", "specialty": "SOUP", "ingredients": [], "last_suggested": 0, "tags": ["hearty"], "id": 0}, {"name": "Thai Sliders", "region": "THAI", "season": "SUMMER", "location": "N/A", "time": "MODERATE", "main_ingredient": "TURKEY", "specialty": "", "ingredients": [], "last_suggested": 0, "tags": [], "id": 1}, {"name": "Shakshuka", "region": "MIDDLE EASTERN", "season": "WINTER", "location": "N/A", "time": "MODERATE", "main_ingredient": "TOMATOES", "specialty": "", "ingredients": [], "last_suggested": 0, "tags": ["healthy"], "id": 2}, {"name": "Enchiladas", "region": "MEXICAN", "season": "FALL", "location": "N/A", "time": "ELABORATE", "main_ingredient": "CHICKEN", "specialty": "", "ingredients": [], "last_suggested": 0, "tags": ["hearty"], "id": 3}, {"name": "Chili", "region": "AMERICAN", "season": "WINTER", "location": "N/A", "time": "EASY", "main_ingredient": "BEEF", "specialty": "SOUP", "ingredients": [], "last_suggested": 0, "tags": ["hearty"], "id": 5}, {"name": "Coq au Vin", "region": "FRENCH", "season": "WINTER", "location": "N/A", "time": "ELABORATE", "main_ingredient": "CHICKEN", "specialty": "SOUP", "ingredients": [], "last_suggested": 0, "tags": ["hearty"], "id": 7}, {"name": "Reuben Sandwiches", "region": "AMERICAN", "season": "WINTER", "location": "N/A", "time": "MODERATE", "main_ingredient": "BEEF", "specialty": "", "ingredients": [], "last_suggested": 0, "tags": ["hearty"], "id": 9}, {"name": "Tacos", "region": "MEXICAN", "season": "SUMMER", "location": "N/A", "time": "EASY", "main_ingredient": "TURKEY", "specialty": "", "ingredients": [""], "last_suggested": 0, "tags": ["staple"], "id": 10}, {"name": "Broccoli Cheddar Soup", "region": "AMERICAN", "season": "SPRING", "location": "N/A", "time": "MODERATE", "main_ingredient": "BROCCOLI", "specialty": "SOUP", "ingredients": [], "last_suggested": 1586047868.359533, "tags": ["vegetarian"], "id": 10}, {"name": "Mujadara", "region": "MIDDLE EASTERN", "tags": [], "season": "SPRING", "location": "Cookie + Kate", "time": "MODERATE", "main_ingredient": "LENTILS", "specialty": "", "ingredients": [""], "last_suggested": 1586047869.046278, "id": 10}, {"name": "Tofu Stir Fry", "region": "ASIAN", "season": "SPRING", "location": "N/A", "time": "MODERATE", "main_ingredient": "TOFU", "specialty": "", "ingredients": [""], "last_suggested": 1586047869.774455, "tags": ["vegetarian"], "id": 10}]}